var lenneparks = {
  "type": "FeatureCollection",
  "crs": {
    "type": "name",
    "properties": {
      "name": "urn:ogc:def:crs:OGC:1.3:CRS84"
    }
  },
  "features": [
    {
      "type": "Feature",
      "properties": {
        "place": "Aachen",
        "year": 1852,
        "text": "Elisengarten, kleine Parkanlage in der Innenstadt, rückwärtig vom Elisenbrunnen"
      },
      "geometry": {
        "type": "Point",
        "coordinates": [
          6.0838868,
          50.7753455
        ]
      }
    },
    {
      "type": "Feature",
      "properties": {
        "place": "Altenburg"
      },
      "geometry": {
        "type": "Point",
        "coordinates": [
          12.4366572,
          50.9931202
        ]
      }
    },
    {
      "type": "Feature",
      "properties": {
        "place": "Altenplathow"
      },
      "geometry": {
        "type": "Point",
        "coordinates": [
          12.15,
          52.45
        ]
      }
    },
    {
      "type": "Feature",
      "properties": {
        "place": "Bad Homburg"
      },
      "geometry": {
        "type": "Point",
        "coordinates": [
          8.6181618,
          50.2268308
        ]
      }
    },
    {
      "type": "Feature",
      "properties": {
        "place": "Bad Neuenahr"
      },
      "geometry": {
        "type": "Point",
        "coordinates": [
          7.1197177,
          50.541815
        ]
      }
    },
    {
      "type": "Feature",
      "properties": {
        "place": "Bad Oeynhausen"
      },
      "geometry": {
        "type": "Point",
        "coordinates": [
          8.8009706,
          52.2084623
        ]
      }
    },
    {
      "type": "Feature",
      "properties": {
        "place": "Ballenstedt"
      },
      "geometry": {
        "type": "Point",
        "coordinates": [
          11.2383073,
          51.7203214
        ]
      }
    },
    {
      "type": "Feature",
      "properties": {
        "place": "Baruth",
        "year": 1838
      },
      "geometry": {
        "type": "Point",
        "coordinates": [
          13.5042115,
          52.033478
        ]
      }
    },
    {
      "type": "Feature",
      "properties": {
        "place": "Basedow",
        "text": "Parallel zur baulichen Neugestaltung des Schlosses, in Kooperation mit Friedrich August Stütler, im Stil eines englischen Landschaftsgartens, Einbeziehung des Dorfes",
        "year": 1835
      },
      "geometry": {
        "type": "Point",
        "coordinates": [
          12.6823945,
          53.6983701
        ]
      }
    },
    {
      "type": "Feature",
      "properties": {
        "place": "Behrenhoff"
      },
      "geometry": {
        "type": "Point",
        "coordinates": [
          13.3873525,
          54.003863
        ]
      }
    },
    {
      "type": "Feature",
      "properties": {
        "place": "Berlin,Tiergarten"
      },
      "geometry": {
        "type": "Point",
        "coordinates": [
          13.3500906,
          52.5144898
        ]
      }
    },
    {
      "type": "Feature",
      "properties": {
        "place": "Berlin,Zoologischer Garten"
      },
      "geometry": {
        "type": "Point",
        "coordinates": [
          13.3375,
          52.50833
        ]
      }
    },
    {
      "type": "Feature",
      "properties": {
        "place": "Berlin,Königsplatz, Platz der Republik"
      },
      "geometry": {
        "type": "Point",
        "coordinates": [
          13.373131,
          52.518569
        ]
      }
    },
    {
      "type": "Feature",
      "properties": {
        "place": "Berlin,Exercier-Platz, Tempelhof"
      },
      "geometry": {
        "type": "Point",
        "coordinates": [
          13.289621,
          52.558731
        ]
      }
    },
    {
      "type": "Feature",
      "properties": {
        "place": "Berlin,Moabit"
      },
      "geometry": {
        "type": "Point",
        "coordinates": [
          13.3447,
          52.5357
        ]
      }
    },
    {
      "type": "Feature",
      "properties": {
        "place": "Berlin,Köpenicker Feld"
      },
      "geometry": {
        "type": "Point",
        "coordinates": [
          13.58282,
          52.443062
        ]
      }
    },
    {
      "type": "Feature",
      "properties": {
        "place": "Berlin,Schlächterwiese"
      },
      "geometry": {
        "type": "Point",
        "coordinates": [
          13.41,
          52.49
        ]
      }
    },
    {
      "type": "Feature",
      "properties": {
        "place": "Berlin,Hasenheide"
      },
      "geometry": {
        "type": "Point",
        "coordinates": [
          13.416,
          52.48799
        ]
      }
    },
    {
      "type": "Feature",
      "properties": {
        "place": "Berlin,Schöneberger Feldmark"
      },
      "geometry": {
        "type": "Point",
        "coordinates": [
          13.312002,
          52.512141
        ]
      }
    },
    {
      "type": "Feature",
      "properties": {
        "place": "Berlin,Friedrichshain"
      },
      "geometry": {
        "type": "Point",
        "coordinates": [
          13.454574,
          52.515919
        ]
      }
    },
    {
      "type": "Feature",
      "properties": {
        "place": "Berlin,Glienicke"
      },
      "geometry": {
        "type": "Point",
        "coordinates": [
          13.327178,
          52.6333266
        ]
      }
    },
    {
      "type": "Feature",
      "properties": {
        "place": "Berlin,Nikolskoe",
        "year": 1833
      },
      "geometry": {
        "type": "Point",
        "coordinates": [
          13.1135225,
          52.4236146
        ]
      }
    },
    {
      "type": "Feature",
      "properties": {
        "place": "Berlin,Pfaueninsel",
        "year": 1829
      },
      "geometry": {
        "type": "Point",
        "coordinates": [
          13.1312533,
          52.4344902
        ]
      }
    },
    {
      "type": "Feature",
      "properties": {
        "place": "Berlin,Charlottenburg"
      },
      "geometry": {
        "type": "Point",
        "coordinates": [
          13.3041054,
          52.5166023
        ]
      }
    },
    {
      "type": "Feature",
      "properties": {
        "place": "Berlin,Bellevue"
      },
      "geometry": {
        "type": "Point",
        "coordinates": [
          13.3478576,
          52.5200021
        ]
      }
    },
    {
      "type": "Feature",
      "properties": {
        "place": "Berlin,Friedrichsfelde"
      },
      "geometry": {
        "type": "Point",
        "coordinates": [
          13.52033,
          52.50188
        ]
      }
    },
    {
      "type": "Feature",
      "properties": {
        "place": "Berlin,Schönhausen, Schloss"
      },
      "geometry": {
        "type": "Point",
        "coordinates": [
          13.405686,
          52.578346
        ]
      }
    },
    {
      "type": "Feature",
      "properties": {
        "place": "Buchholz"
      },
      "geometry": {
        "type": "Point",
        "coordinates": [
          9.8694845,
          53.3176971
        ]
      }
    },
    {
      "type": "Feature",
      "properties": {
        "place": "Blankensee"
      },
      "geometry": {
        "type": "Point",
        "coordinates": [
          13.130654,
          52.233242
        ]
      }
    },
    {
      "type": "Feature",
      "properties": {
        "place": "Blumberg"
      },
      "geometry": {
        "type": "Point",
        "coordinates": [
          8.5347427,
          47.8392288
        ]
      }
    },
    {
      "type": "Feature",
      "properties": {
        "place": "Boitzenburg"
      },
      "geometry": {
        "type": "Point",
        "coordinates": [
          13.6098836,
          53.2732307
        ]
      }
    },
    {
      "type": "Feature",
      "properties": {
        "place": "Bonn"
      },
      "geometry": {
        "type": "Point",
        "coordinates": [
          7.0982068,
          50.73743
        ]
      }
    },
    {
      "type": "Feature",
      "properties": {
        "place": "Bredenfelde"
      },
      "geometry": {
        "type": "Point",
        "coordinates": [
          12.9561451,
          53.6018723
        ]
      }
    },
    {
      "type": "Feature",
      "properties": {
        "place": "Broock",
        "year": 1840,
        "text": "Baron v. Seckendorf zu Broock"
      },
      "geometry": {
        "type": "Point",
        "coordinates": [
          12.109385,
          53.4635754
        ]
      }
    },
    {
      "type": "Feature",
      "properties": {
        "place": "Brühl",
        "year": 1842,
        "text": "Umgestaltung des bestehenden Barockgartens in englischen Landschaftsgarten"
      },
      "geometry": {
        "type": "Point",
        "coordinates": [
          6.915,
          50.82597
        ]
      }
    },
    {
      "type": "Feature",
      "properties": {
        "place": "Chorin",
        "year": 1832
      },
      "geometry": {
        "type": "Point",
        "coordinates": [
          13.87274,
          52.9038
        ]
      }
    },
    {
      "type": "Feature",
      "properties": {
        "place": "Coburg"
      },
      "geometry": {
        "type": "Point",
        "coordinates": [
          10.962695,
          50.2612094
        ]
      }
    },
    {
      "type": "Feature",
      "properties": {
        "place": "Criewen"
      },
      "geometry": {
        "type": "Point",
        "coordinates": [
          14.2134188,
          53.0094504
        ]
      }
    },
    {
      "type": "Feature",
      "properties": {
        "place": "Dahlwitz"
      },
      "geometry": {
        "type": "Point",
        "coordinates": [
          13.6581643,
          52.5020926
        ]
      }
    },
    {
      "type": "Feature",
      "properties": {
        "place": "Drehsa"
      },
      "geometry": {
        "type": "Point",
        "coordinates": [
          14.5647481,
          51.179044
        ]
      }
    },
    {
      "type": "Feature",
      "properties": {
        "place": "Dresden"
      },
      "geometry": {
        "type": "Point",
        "coordinates": [
          13.7372621,
          51.0504088
        ]
      }
    },
    {
      "type": "Feature",
      "properties": {
        "place": "Dülmen"
      },
      "geometry": {
        "type": "Point",
        "coordinates": [
          7.2834926,
          51.8316451
        ]
      }
    },
    {
      "type": "Feature",
      "properties": {
        "place": "Feldafing"
      },
      "geometry": {
        "type": "Point",
        "coordinates": [
          11.2889245,
          47.9463712
        ]
      }
    },
    {
      "type": "Feature",
      "properties": {
        "place": "Flatow"
      },
      "geometry": {
        "type": "Point",
        "coordinates": [
          13.335888,
          53.4068718
        ]
      }
    },
    {
      "type": "Feature",
      "properties": {
        "place": "Frankfurt/Oder",
        "year": 1846
      },
      "geometry": {
        "type": "Point",
        "coordinates": [
          14.5505673,
          52.3472237
        ]
      }
    },
    {
      "type": "Feature",
      "properties": {
        "place": "Freienwalde",
        "year": 1831
      },
      "geometry": {
        "type": "Point",
        "coordinates": [
          14.0385706,
          52.7829161
        ]
      }
    },
    {
      "type": "Feature",
      "properties": {
        "place": "Görlsdorf"
      },
      "geometry": {
        "type": "Point",
        "coordinates": [
          13.934606,
          53.053997
        ]
      }
    },
    {
      "type": "Feature",
      "properties": {
        "place": "Gültz",
        "year": 1840,
        "text": "Situation des herrschaftlichen Hofes zu Gültz"
      },
      "geometry": {
        "type": "Point",
        "coordinates": [
          13.1839048,
          53.74883329999999
        ]
      }
    },
    {
      "type": "Feature",
      "properties": {
        "place": "Hohenlandin",
        "year": "",
        "text": ""
      },
      "geometry": {
        "type": "Point",
        "coordinates": [
          14.1352009,
          53.0936595
        ]
      }
    },
    {
      "type": "Feature",
      "properties": {
        "place": "Hohenschwangau",
        "text": ""
      },
      "geometry": {
        "type": "Point",
        "coordinates": [
          10.7416654,
          47.5583801
        ]
      }
    },
    {
      "type": "Feature",
      "properties": {
        "place": "Hohenzollern"
      },
      "geometry": {
        "type": "Point",
        "coordinates": [
          8.96736,
          48.32356
        ]
      }
    },
    {
      "type": "Feature",
      "properties": {
        "place": "Kamenz"
      },
      "geometry": {
        "type": "Point",
        "coordinates": [
          14.1024881,
          51.2749068
        ]
      }
    },
    {
      "type": "Feature",
      "properties": {
        "place": "Kartlow"
      },
      "geometry": {
        "type": "Point",
        "coordinates": [
          11.5723908,
          53.9307886
        ]
      }
    },
    {
      "type": "Feature",
      "properties": {
        "place": "Köln"
      },
      "geometry": {
        "type": "Point",
        "coordinates": [
          6.9602786,
          50.937531
        ]
      }
    },
    {
      "type": "Feature",
      "properties": {
        "place": "Königshorst"
      },
      "geometry": {
        "type": "Point",
        "coordinates": [
          12.7729021,
          52.7117862
        ]
      }
    },
    {
      "type": "Feature",
      "properties": {
        "place": "Königs Wusterhausen",
        "year": 1832
      },
      "geometry": {
        "type": "Point",
        "coordinates": [
          13.6228382,
          52.2958906
        ]
      }
    },
    {
      "type": "Feature",
      "properties": {
        "place": "Kruckow"
      },
      "geometry": {
        "type": "Point",
        "coordinates": [
          13.2413894,
          53.9003406
        ]
      }
    },
    {
      "type": "Feature",
      "properties": {
        "place": "Krumbeck"
      },
      "geometry": {
        "type": "Point",
        "coordinates": [
          13.4479439,
          53.4038636
        ]
      }
    },
    {
      "type": "Feature",
      "properties": {
        "place": "Lanke",
        "year": 1827
      },
      "geometry": {
        "type": "Point",
        "coordinates": [
          13.56751,
          52.759288
        ]
      }
    },
    {
      "type": "Feature",
      "properties": {
        "place": "Leipzig"
      },
      "geometry": {
        "type": "Point",
        "coordinates": [
          12.3730747,
          51.3396955
        ]
      }
    },
    {
      "type": "Feature",
      "properties": {
        "place": "Leistenow"
      },
      "geometry": {
        "type": "Point",
        "coordinates": [
          13.117568,
          53.858039
        ]
      }
    },
    {
      "type": "Feature",
      "properties": {
        "place": "Lengerich"
      },
      "geometry": {
        "type": "Point",
        "coordinates": [
          7.8626385,
          52.1822998
        ]
      }
    },
    {
      "type": "Feature",
      "properties": {
        "place": "Liebenberg"
      },
      "geometry": {
        "type": "Point",
        "coordinates": [
          13.260323,
          52.894257
        ]
      }
    },
    {
      "type": "Feature",
      "properties": {
        "place": "Linde"
      },
      "geometry": {
        "type": "Point",
        "coordinates": [
          7.2352784,
          51.230386
        ]
      }
    },
    {
      "type": "Feature",
      "properties": {
        "place": "Ludwigslust"
      },
      "geometry": {
        "type": "Point",
        "coordinates": [
          11.4969238,
          53.3244914
        ]
      }
    },
    {
      "type": "Feature",
      "properties": {
        "place": "Magdeburg",
        "year": 1825,
        "text": "Herrenkrugpark (1829-1830), Nordpark (1827), Klosterbergegarten (1825-1835)"
      },
      "geometry": {
        "type": "Point",
        "coordinates": [
          11.6276237,
          52.1205333
        ]
      }
    },
    {
      "type": "Feature",
      "properties": {
        "place": "Marquardt",
        "year": 1823
      },
      "geometry": {
        "type": "Point",
        "coordinates": [
          12.962778,
          52.455441
        ]
      }
    },
    {
      "type": "Feature",
      "properties": {
        "place": "Merseburg"
      },
      "geometry": {
        "type": "Point",
        "coordinates": [
          11.9917462,
          51.3563278
        ]
      }
    },
    {
      "type": "Feature",
      "properties": {
        "place": "Neuensund"
      },
      "geometry": {
        "type": "Point",
        "coordinates": [
          13.7792753,
          53.5844752
        ]
      }
    },
    {
      "type": "Feature",
      "properties": {
        "place": "Neuhardenberg",
        "year": 1821
      },
      "geometry": {
        "type": "Point",
        "coordinates": [
          14.2407753,
          52.5954398
        ]
      }
    },
    {
      "type": "Feature",
      "properties": {
        "place": "Neuruppin"
      },
      "geometry": {
        "type": "Point",
        "coordinates": [
          12.7990783,
          52.9154545
        ]
      }
    },
    {
      "type": "Feature",
      "properties": {
        "place": "Neustrelitz",
        "text": ""
      },
      "geometry": {
        "type": "Point",
        "coordinates": [
          13.0730197,
          53.3601147
        ]
      }
    },
    {
      "type": "Feature",
      "properties": {
        "place": "Ostenwalde"
      },
      "geometry": {
        "type": "Point",
        "coordinates": [
          7.578358,
          52.340801
        ]
      }
    },
    {
      "type": "Feature",
      "properties": {
        "place": "Potsdam"
      },
      "geometry": {
        "type": "Point",
        "coordinates": [
          13.066477,
          52.391555
        ]
      }
    },
    {
      "type": "Feature",
      "properties": {
        "place": "Potsdam, Insel Potsdam"
      },
      "geometry": {
        "type": "Point",
        "coordinates": [
          13.0644729,
          52.3905689
        ]
      }
    },
    {
      "type": "Feature",
      "properties": {
        "place": "Potsdam, Stadt Potsdam"
      },
      "geometry": {
        "type": "Point",
        "coordinates": [
          13.064366,
          52.390594
        ]
      }
    },
    {
      "type": "Feature",
      "properties": {
        "place": "Potsdam, Park Sanssouci"
      },
      "geometry": {
        "type": "Point",
        "coordinates": [
          13.0352756,
          52.4046948
        ]
      }
    },
    {
      "type": "Feature",
      "properties": {
        "place": "Potsdam, Neuer Garten"
      },
      "geometry": {
        "type": "Point",
        "coordinates": [
          13.06297,
          52.40957
        ]
      }
    },
    {
      "type": "Feature",
      "properties": {
        "place": "Potsdam, Pfingstberg"
      },
      "geometry": {
        "type": "Point",
        "coordinates": [
          13.0589693,
          52.4188522
        ]
      }
    },
    {
      "type": "Feature",
      "properties": {
        "place": "Potsdam, Russische Kolonie"
      },
      "geometry": {
        "type": "Point",
        "coordinates": [
          13.0565269,
          52.4118646
        ]
      }
    },
    {
      "type": "Feature",
      "properties": {
        "place": "Potsdam, Babelsberg"
      },
      "geometry": {
        "type": "Point",
        "coordinates": [
          13.1028718,
          52.3875629
        ]
      }
    },
    {
      "type": "Feature",
      "properties": {
        "place": "Potsdam, Lindstedt"
      },
      "geometry": {
        "type": "Point",
        "coordinates": [
          12.9876994,
          52.4070342
        ]
      }
    },
    {
      "type": "Feature",
      "properties": {
        "place": "Potsdam, Sacrow",
        "year": ""
      },
      "geometry": {
        "type": "Point",
        "coordinates": [
          13.0935413,
          52.4319598
        ]
      }
    },
    {
      "type": "Feature",
      "properties": {
        "place": "Potsdam, Bornstedt"
      },
      "geometry": {
        "type": "Point",
        "coordinates": [
          13.0375626,
          52.4192712
        ]
      }
    },
    {
      "type": "Feature",
      "properties": {
        "place": "Potsdam, Bornim"
      },
      "geometry": {
        "type": "Point",
        "coordinates": [
          13.0012167,
          52.4314607
        ]
      }
    },
    {
      "type": "Feature",
      "properties": {
        "place": "Potsdam, Caputh"
      },
      "geometry": {
        "type": "Point",
        "coordinates": [
          12.9861248,
          52.3356762
        ]
      }
    },
    {
      "type": "Feature",
      "properties": {
        "place": "Radensleben"
      },
      "geometry": {
        "type": "Point",
        "coordinates": [
          12.9199114,
          52.875306
        ]
      }
    },
    {
      "type": "Feature",
      "properties": {
        "place": "Remplin",
        "year": 1851,
        "text": "1851 Planvorlegung, 1852 Entwurf"
      },
      "geometry": {
        "type": "Point",
        "coordinates": [
          12.6972197,
          53.7538406
        ]
      }
    },
    {
      "type": "Feature",
      "properties": {
        "place": "Rottmannshagen",
        "year": 1840,
        "text": "Plan von Rottmannshagen"
      },
      "geometry": {
        "type": "Point",
        "coordinates": [
          12.859076,
          53.6509267
        ]
      }
    },
    {
      "type": "Feature",
      "properties": {
        "place": "Sarow"
      },
      "geometry": {
        "type": "Point",
        "coordinates": [
          13.103241,
          53.7949522
        ]
      }
    },
    {
      "type": "Feature",
      "properties": {
        "place": "Schorfheide"
      },
      "geometry": {
        "type": "Point",
        "coordinates": [
          13.5340976,
          52.9042595
        ]
      }
    },
    {
      "type": "Feature",
      "properties": {
        "place": "Schulpforte"
      },
      "geometry": {
        "type": "Point",
        "coordinates": [
          11.7526127,
          51.1424901
        ]
      }
    },
    {
      "type": "Feature",
      "properties": {
        "place": "Schwerin"
      },
      "geometry": {
        "type": "Point",
        "coordinates": [
          11.4012499,
          53.6355022
        ]
      }
    },
    {
      "type": "Feature",
      "properties": {
        "place": "Sonnenburg"
      },
      "geometry": {
        "type": "Point",
        "coordinates": [
          14.0417289,
          52.7439187
        ]
      }
    },
    {
      "type": "Feature",
      "properties": {
        "place": "Tentzerow",
        "year": 1829,
        "text": "Verschönerungs Plan des Ritter Gutes Tencerow dem Herrn von Krause gehörigt angefertigt im Jahre 1829 von Lenné"
      },
      "geometry": {
        "type": "Point",
        "coordinates": [
          13.1892268,
          53.8187834
        ]
      }
    },
    {
      "type": "Feature",
      "properties": {
        "place": "Varchentin"
      },
      "geometry": {
        "type": "Point",
        "coordinates": [
          12.8602456,
          53.5836935
        ]
      }
    },
    {
      "type": "Feature",
      "properties": {
        "place": "Wolfshagen",
        "year": 1832,
        "text": "Wolfshagen dem Grafen von Schwerin gehörig"
      },
      "geometry": {
        "type": "Point",
        "coordinates": [
          13.656970,
          53.440234
        ]
      }
    },
    {
      "type": "Feature",
      "properties": {
        "place": "Zabakuk"
      },
      "geometry": {
        "type": "Point",
        "coordinates": [
          12.2137738,
          52.4563636
        ]
      }
    },
    {
      "type": "Feature",
      "properties": {
        "place": "Zarrenthin",
        "year": 1840,
        "text": "Baron v. Sobeck zu Zarrenthin"
      },
      "geometry": {
        "type": "Point",
        "coordinates": [
          10.9163473,
          53.5487491
        ]
      }
    },
    {
      "type": "Feature",
      "properties": {
        "place": "Zettemin"
      },
      "geometry": {
        "type": "Point",
        "coordinates": [
          12.8309191,
          53.6484477
        ]
      }
    },
    {
      "type": "Feature",
      "properties": {
        "place": "Zützen"
      },
      "geometry": {
        "type": "Point",
        "coordinates": [
          13.6424215,
          51.9579684
        ]
      }
    }
  ]
};
